{
  "type": "FeatureCollection",
  "features": [
    {
      "type": "Feature",
      "properties": {
        "station": "AT22229480",
        "operator": "SOFIA",
        "locationName": "Hipodruma"
      },
      "geometry": {
        "type": "Point",
        "coordinates": [23.296306, 42.6808890]
      }
    },
    {
      "type": "Feature",
      "properties": {
        "station": "AT22539001",
        "operator": "SOFIA",
        "locationName": "Dragalevtsi"
      },
      "geometry": {
        "type": "Point",
        "coordinates": [23.308639, 42.6292500]
      }
    },
    {
      "type": "Feature",
      "properties": {
        "station": "AT22528883",
        "operator": "SOFIA",
        "locationName": "Druzhba"
      },
      "geometry": {
        "type": "Point",
        "coordinates": [23.400272, 42.6658890]
      }
    },
    {
      "type": "Feature",
      "properties": {
        "station": "AT22512471",
        "operator": "SOFIA",
        "locationName": "NVA"
      },
      "geometry": {
        "type": "Point",
        "coordinates": [23.345861, 42.6930560]
      }
    },
    {
      "type": "Feature",
      "properties": {
        "station": "AT22229477",
        "operator": "SOFIA",
        "locationName": "Yanko Sakazov"
      },
      "geometry": {
        "type": "Point",
        "coordinates": [23.342028, 42.6966110]
      }
    },
    {
      "type": "Feature",
      "properties": {
        "station": "AT22533432",
        "operator": "SOFIA",
        "locationName": "Vrazhdebna"
      },
      "geometry": {
        "type": "Point",
        "coordinates": [23.413528, 42.7117220]
      }
    },
    {
      "type": "Feature",
      "properties": {
        "station": "AT22229335",
        "operator": "SOFIA",
        "locationName": "Borovo"
      },
      "geometry": {
        "type": "Point",
        "coordinates": [23.295861, 42.6647780]
      }
    },
    {
      "type": "Feature",
      "properties": {
        "station": "AT22229424",
        "operator": "SOFIA",
        "locationName": "Ivan Vazov"
      },
      "geometry": {
        "type": "Point",
        "coordinates": [23.308056, 42.6780000]
      }
    },
    {
      "type": "Feature",
      "properties": {
        "station": "AT22229455",
        "operator": "SOFIA",
        "locationName": "Bouchier"
      },
      "geometry": {
        "type": "Point",
        "coordinates": [23.320139, 42.6715560]
      }
    },
    {
      "type": "Feature",
      "properties": {
        "station": "AT22229350",
        "operator": "SOFIA",
        "locationName": "Studentski"
      },
      "geometry": {
        "type": "Point",
        "coordinates": [23.34925, 42.6563330]
      }
    },
    {
      "type": "Feature",
      "properties": {
        "station": "AT22229294",
        "operator": "SOFIA",
        "locationName": "Mladost"
      },
      "geometry": {
        "type": "Point",
        "coordinates": [23.383222, 42.6555280]
      }
    },
    {
      "type": "Feature",
      "properties": {
        "station": "AT22229237",
        "operator": "SOFIA",
        "locationName": "Hristo Botev"
      },
      "geometry": {
        "type": "Point",
        "coordinates": [23.38625, 42.6914170]
      }
    },
    {
      "type": "Feature",
      "properties": {
        "station": "AT22535384",
        "operator": "SOFIA",
        "locationName": "Poduyane"
      },
      "geometry": {
        "type": "Point",
        "coordinates": [23.368, 42.7015830]
      }
    },
    {
      "type": "Feature",
      "properties": {
        "station": "AT22527228",
        "operator": "SOFIA",
        "locationName": "Orlandovtsi"
      },
      "geometry": {
        "type": "Point",
        "coordinates": [23.335556, 42.7222500]
      }
    },
    {
      "type": "Feature",
      "properties": {
        "station": "AT22525603",
        "operator": "SOFIA",
        "locationName": "Ovcha Kupel"
      },
      "geometry": {
        "type": "Point",
        "coordinates": [23.268472, 42.6700000]
      }
    },
    {
      "type": "Feature",
      "properties": {
        "station": "AT22229503",
        "operator": "SOFIA",
        "locationName": "Lincoln"
      },
      "geometry": {
        "type": "Point",
        "coordinates": [23.240306, 42.6870000]
      }
    },
    {
      "type": "Feature",
      "properties": {
        "station": "AT22533909",
        "operator": "SOFIA",
        "locationName": "Stamboliyski"
      },
      "geometry": {
        "type": "Point",
        "coordinates": [23.276833, 42.7015830]
      }
    },
    {
      "type": "Feature",
      "properties": {
        "station": "AT22229497",
        "operator": "SOFIA",
        "locationName": "Nadezhda"
      },
      "geometry": {
        "type": "Point",
        "coordinates": [23.297472, 42.7271390]
      }
    },
    {
      "type": "Feature",
      "properties": {
        "station": "AT22478005",
        "operator": "SOFIA",
        "locationName": "Lyulin 9"
      },
      "geometry": {
        "type": "Point",
        "coordinates": [23.264556, 42.7154170]
      }
    },
    {
      "type": "Feature",
      "properties": {
        "station": "AT22229494",
        "operator": "SOFIA",
        "locationName": "Krasna polyana"
      },
      "geometry": {
        "type": "Point",
        "coordinates": [23.291667, 42.6931390]
      }
    },
    {
      "type": "Feature",
      "properties": {
        "station": "AT22532689",
        "operator": "SOFIA",
        "locationName": "Centralna gara"
      },
      "geometry": {
        "type": "Point",
        "coordinates": [23.322558, 42.7103080]
      }
    },
    {
      "type": "Feature",
      "properties": {
        "station": "AT22229482",
        "operator": "SOFIA",
        "locationName": "Zimen dvorets"
      },
      "geometry": {
        "type": "Point",
        "coordinates": [23.345139, 42.6451670]
      }
    }
  ]
}
